{"employees": {"E137727": {"name": "Ehiosa Abraham", "phone_number": "4564876549", "position": "dishwasher", "hourly_rate": "30"}, "E225305": {"name": "Mimi Evans", "phone_number": "9873451254", "position": "Cleaner", "hourly_rate": "21"}, "E278740": {"name": "Prue oyen", "phone_number": "11231231238", "position": "lead", "hourly_rate": "23"}, "E709599": {"name": "Sade Oluwa", "phone_number": "9872348765", "position": "cleaner", "hourly_rate": "19"}, "E200539": {"name": "Nichola Weston", "phone_number": "6534569832", "position": "Marketer", "hourly_rate": "35"}, "E400138": {"name": "Jamine Wilson", "phone_number": "4569831209", "position": "Head of Operation", "hourly_rate": "32"}, "E661310": {"name": "Emily Patel", "phone_number": "0984567435", "position": "Cleaning Supervisor", "hourly_rate": "23.67"}, "E753149": {"name": "Alexander Matin", "phone_number": "0897653456", "position": "Quality Control Inspector", "hourly_rate": "34.90"}}, "clients": {"C000001": {"name": "KFC", "phone_number": "0934678543", "location": "Vaughan"}, "C558486": {"name": "Mcdonald", "phone_number": "0764321276", "location": "Toronto"}, "C430002": {"name": "Popeyes", "phone_number": "0569023964", "location": "North York"}, "C030215": {"name": "Grind Cofee Shop", "phone_number": "0765432456", "location": "Toronto"}, "C497002": {"name": "FreshStart Fitness", "phone_number": "0346586345", "location": "Brampton"}, "C930470": {"name": "Residence Inn", "phone_number": "0954326585", "location": "Markham"}, "C860874": {"name": "Sunny Up Hotel", "phone_number": "0987453752", "location": "Oakville"}}, "tasks": {"T461511": {"task_name": "Cleaning", "employee_id": "E225305", "client_id": "C558486", "hours_worked": "36", "date": "2024-11-25"}, "T927767": {"task_name": "Dishwashing", "employee_id": "E278740", "client_id": "C558486", "hours_worked": "40", "date": "2024-11-25"}, "T268428": {"task_name": "Marketing", "employee_id": "E200539", "client_id": "C558486", "hours_worked": "20", "date": "2024-11-20"}, "T582214": {"task_name": "Laundry", "employee_id": "E278740", "client_id": "C558486", "hours_worked": "34", "date": "2024-10-12"}, "T490928": {"task_name": "Floor Care", "employee_id": "E400138", "client_id": "C000001", "hours_worked": "56", "date": "2024-11-25"}, "T458901": {"task_name": "Dusting and Polishing", "employee_id": "E137727", "client_id": "C430002", "hours_worked": "23", "date": "2024-11-25"}, "T672315": {"task_name": "Trash and Recycling", "employee_id": "E400138", "client_id": "C430002", "hours_worked": "56", "date": "2024-11-27"}, "T803934": {"task_name": "Cleaning", "employee_id": "E661310", "client_id": "C930470", "hours_worked": "40", "date": "2024-11-26"}, "T377015": {"task_name": "Floor Cleaning", "employee_id": "E753149", "client_id": "C930470", "hours_worked": "40", "date": "2024-11-26"}}}